{
  "categories": [
    {
      "id": "default",
      "name": "預設",
      "color": "#6c8cff",
      "sort_order": 0,
      "created_at": "2026-04-14T03:35:24.322091+00:00"
    },
    {
      "id": "mushrooms",
      "name": "蘑菇",
      "color": "#ff6b6b",
      "sort_order": 1,
      "created_at": "2026-04-14T03:35:24.322091+00:00"
    },
    {
      "id": "postcards",
      "name": "明信片",
      "color": "#4ecdc4",
      "sort_order": 2,
      "created_at": "2026-04-14T03:35:24.322091+00:00"
    },
    {
      "id": "flowers",
      "name": "花",
      "color": "#ffe66d",
      "sort_order": 3,
      "created_at": "2026-04-14T03:35:24.322091+00:00"
    },
    {
      "id": "decorations",
      "name": "裝飾",
      "color": "#95e1d3",
      "sort_order": 4,
      "created_at": "2026-04-14T03:35:24.322091+00:00"
    }
  ],
  "bookmarks": [
    {
      "id": "b7e6ff5b-802f-49bb-8360-0fee199bb690",
      "name": "獅身人面像",
      "lat": 29.975283,
      "lng": 31.137795,
      "address": "埃及",
      "note": "",
      "category_id": "mushrooms",
      "created_at": "2026-04-14T03:35:24.322091+00:00",
      "last_used_at": "2026-04-14T03:35:24.322091+00:00"
    },
    {
      "id": "c56a6b3e-194b-44f1-8de2-f5b6a5e28208",
      "name": "聖托裡尼",
      "lat": 36.432041,
      "lng": 25.416986,
      "address": "希臘",
      "note": "",
      "category_id": "mushrooms",
      "created_at": "2026-04-14T03:35:24.322091+00:00",
      "last_used_at": "2026-04-14T03:35:24.322091+00:00"
    },
    {
      "id": "64dfe307-9295-4a27-be56-d2baa7ab9769",
      "name": "北海道 田園生活館",
      "lat": 42.372897,
      "lng": 142.421248,
      "address": "日本",
      "note": "",
      "category_id": "mushrooms",
      "created_at": "2026-04-14T03:35:24.322091+00:00",
      "last_used_at": "2026-04-14T03:35:24.322091+00:00"
    },
    {
      "id": "3e5d9b6a-890d-47ec-954a-d69784c589f1",
      "name": "愛因斯坦菇點",
      "lat": 5.824387,
      "lng": -73.023066,
      "address": "哥倫比亞",
      "note": "",
      "category_id": "mushrooms",
      "created_at": "2026-04-14T03:35:24.322091+00:00",
      "last_used_at": "2026-04-14T03:35:24.322091+00:00"
    },
    {
      "id": "6f141f9f-55c1-410a-b17a-a55d8b16149d",
      "name": "北海道滑雪場山頂",
      "lat": 42.8747,
      "lng": 140.6588,
      "address": "日本",
      "note": "",
      "category_id": "mushrooms",
      "created_at": "2026-04-14T03:35:24.322091+00:00",
      "last_used_at": "2026-04-14T03:35:24.322091+00:00"
    },
    {
      "id": "e8563053-a663-4834-876c-b8bef4612323",
      "name": "大腳踏車",
      "lat": -38.6735,
      "lng": 176.069,
      "address": "紐西蘭",
      "note": "",
      "category_id": "mushrooms",
      "created_at": "2026-04-14T03:35:24.322091+00:00",
      "last_used_at": "2026-04-14T03:35:24.322091+00:00"
    },
    {
      "id": "3337233a-c0b9-43bb-ac7f-f16ef84c8dc8",
      "name": "佩里托莫雷諾冰川步道",
      "lat": -50.468971,
      "lng": -73.033376,
      "address": "阿根廷",
      "note": "",
      "category_id": "mushrooms",
      "created_at": "2026-04-14T03:35:24.322091+00:00",
      "last_used_at": "2026-04-14T03:35:24.322091+00:00"
    },
    {
      "id": "339e0229-021c-4098-8a72-448cd6ef09dc",
      "name": "艾菲爾鐵塔",
      "lat": 48.858093,
      "lng": 2.294694,
      "address": "法國",
      "note": "",
      "category_id": "mushrooms",
      "created_at": "2026-04-14T03:35:24.322091+00:00",
      "last_used_at": "2026-04-14T03:35:24.322091+00:00"
    },
    {
      "id": "23874457-541d-432b-bad5-20ca4ce12a53",
      "name": "羅馬競技場",
      "lat": 41.890209,
      "lng": 12.492231,
      "address": "義大利",
      "note": "",
      "category_id": "mushrooms",
      "created_at": "2026-04-14T03:35:24.322091+00:00",
      "last_used_at": "2026-04-14T03:35:24.322091+00:00"
    },
    {
      "id": "4bdeb2c5-daaf-4268-b95c-e14fc3303e0e",
      "name": "自由女神像",
      "lat": 40.689247,
      "lng": -74.044502,
      "address": "美國",
      "note": "",
      "category_id": "mushrooms",
      "created_at": "2026-04-14T03:35:24.322091+00:00",
      "last_used_at": "2026-04-14T03:35:24.322091+00:00"
    },
    {
      "id": "4da039c0-0d4c-4d6b-aefa-b5212c43b349",
      "name": "雪梨歌劇院",
      "lat": -33.856159,
      "lng": 151.215256,
      "address": "澳洲",
      "note": "",
      "category_id": "mushrooms",
      "created_at": "2026-04-14T03:35:24.322091+00:00",
      "last_used_at": "2026-04-14T03:35:24.322091+00:00"
    },
    {
      "id": "5ec83604-b412-4e7b-9ca6-896a71e4d4e1",
      "name": "泰姬瑪哈陵",
      "lat": 27.173891,
      "lng": 78.042068,
      "address": "印度",
      "note": "",
      "category_id": "mushrooms",
      "created_at": "2026-04-14T03:35:24.322091+00:00",
      "last_used_at": "2026-04-14T03:35:24.322091+00:00"
    },
    {
      "id": "b890095c-d4b2-42fb-8139-1409d9d4ba7c",
      "name": "新天鵝堡",
      "lat": 47.557732,
      "lng": 10.749646,
      "address": "德國",
      "note": "",
      "category_id": "mushrooms",
      "created_at": "2026-04-14T03:35:24.322091+00:00",
      "last_used_at": "2026-04-14T03:35:24.322091+00:00"
    },
    {
      "id": "5f615cb6-f98c-4aa6-a12a-4becd8a746df",
      "name": "(杜拜)帆船酒店花園",
      "lat": 25.141046,
      "lng": 55.185494,
      "address": "",
      "note": "",
      "category_id": "postcards",
      "created_at": "2026-04-14T03:35:24.322091+00:00",
      "last_used_at": "2026-04-14T03:35:24.322091+00:00"
    },
    {
      "id": "b4e34881-84ef-49cc-819b-1724f911a816",
      "name": "鳥取縣 北榮町（柯南）",
      "lat": 35.492782,
      "lng": 133.759124,
      "address": "日本",
      "note": "",
      "category_id": "postcards",
      "created_at": "2026-04-14T03:35:24.322091+00:00",
      "last_used_at": "2026-04-14T03:35:24.322091+00:00"
    },
    {
      "id": "817752ac-1aa2-4afc-9366-2cd264c84422",
      "name": "東京迪士尼 長髮公主",
      "lat": 35.628459,
      "lng": 139.87995,
      "address": "日本",
      "note": "",
      "category_id": "postcards",
      "created_at": "2026-04-14T03:35:24.322091+00:00",
      "last_used_at": "2026-04-14T03:35:24.322091+00:00"
    },
    {
      "id": "5a697fba-0c9c-456d-9893-195cba1ccfc6",
      "name": "唐老鴨雕像",
      "lat": 4.810691,
      "lng": -74.098393,
      "address": "哥倫比亞",
      "note": "",
      "category_id": "postcards",
      "created_at": "2026-04-14T03:35:24.322091+00:00",
      "last_used_at": "2026-04-14T03:35:24.322091+00:00"
    },
    {
      "id": "8ffec5ae-c507-441d-8de5-c27c287f64cb",
      "name": "布拉格天文鐘",
      "lat": 50.08692,
      "lng": 14.420822,
      "address": "布拉格",
      "note": "",
      "category_id": "postcards",
      "created_at": "2026-04-14T03:35:24.322091+00:00",
      "last_used_at": "2026-04-14T03:35:24.322091+00:00"
    },
    {
      "id": "066e6088-88b0-4441-ba28-b54479969692",
      "name": "京都伏見稲荷神社 吉伊卡哇",
      "lat": 34.96797,
      "lng": 135.771098,
      "address": "日本",
      "note": "",
      "category_id": "postcards",
      "created_at": "2026-04-14T03:35:24.322091+00:00",
      "last_used_at": "2026-04-14T03:35:24.322091+00:00"
    },
    {
      "id": "760a7edf-e478-4a0b-897d-f70ac4c8aa7e",
      "name": "川越 Miffy & Snoopy",
      "lat": 35.923732,
      "lng": 139.482955,
      "address": "日本",
      "note": "",
      "category_id": "postcards",
      "created_at": "2026-04-14T03:35:24.322091+00:00",
      "last_used_at": "2026-04-14T03:35:24.322091+00:00"
    },
    {
      "id": "2aed02d0-6fb4-44c0-b90b-a96f412daabf",
      "name": "環球影城日本 (Super Nintendo World)",
      "lat": 34.665394,
      "lng": 135.432526,
      "address": "日本",
      "note": "",
      "category_id": "postcards",
      "created_at": "2026-04-14T03:35:24.322091+00:00",
      "last_used_at": "2026-04-14T03:35:24.322091+00:00"
    },
    {
      "id": "b53c379d-3219-4e2e-a680-d9555df02bcf",
      "name": "(秘魯) 馬丘比丘",
      "lat": -13.163068,
      "lng": -72.545128,
      "address": "",
      "note": "明信片花點",
      "category_id": "postcards",
      "created_at": "2026-04-14T03:35:24.322091+00:00",
      "last_used_at": "2026-04-14T03:35:24.322091+00:00"
    },
    {
      "id": "2f525003-85ee-4580-b59c-cfb3c40a13e5",
      "name": "布萊德島",
      "lat": 46.361605,
      "lng": 14.090046,
      "address": "斯洛維尼亞",
      "note": "",
      "category_id": "flowers",
      "created_at": "2026-04-14T03:35:24.322091+00:00",
      "last_used_at": "2026-04-14T03:35:24.322091+00:00"
    },
    {
      "id": "86fa4d3b-38ad-48ea-a990-baa5568e4941",
      "name": "倫敦大笨鐘",
      "lat": 51.500854,
      "lng": -0.124554,
      "address": "英國",
      "note": "",
      "category_id": "flowers",
      "created_at": "2026-04-14T03:35:24.322091+00:00",
      "last_used_at": "2026-04-14T03:35:24.322091+00:00"
    },
    {
      "id": "038bc9bb-affa-44cb-81a4-0041dfa4f36b",
      "name": "彰化扇形車庫",
      "lat": 24.085361,
      "lng": 120.539459,
      "address": "台灣",
      "note": "",
      "category_id": "flowers",
      "created_at": "2026-04-14T03:35:24.322091+00:00",
      "last_used_at": "2026-04-14T03:35:24.322091+00:00"
    },
    {
      "id": "048cb7bb-1f81-473f-b1d0-aa5aeb23ade1",
      "name": "佛羅倫斯聖母百花聖殿",
      "lat": 43.773027,
      "lng": 11.256912,
      "address": "義大利",
      "note": "",
      "category_id": "flowers",
      "created_at": "2026-04-14T03:35:24.322091+00:00",
      "last_used_at": "2026-04-14T03:35:24.322091+00:00"
    },
    {
      "id": "18d8e0a7-093c-47ec-aee5-b7a7a5636f27",
      "name": "(日本)富士之櫻",
      "lat": 35.4422,
      "lng": 138.6029,
      "address": "",
      "note": "明信片花點",
      "category_id": "flowers",
      "created_at": "2026-04-14T03:35:24.322091+00:00",
      "last_used_at": "2026-04-14T03:35:24.322091+00:00"
    },
    {
      "id": "aaa72684-5cf5-422d-bed2-d3c8462a5473",
      "name": "埃及金字塔",
      "lat": 29.9723,
      "lng": 31.1285,
      "address": "",
      "note": "",
      "category_id": "postcards",
      "created_at": "2026-04-14T03:35:24.322091+00:00",
      "last_used_at": "2026-04-14T03:35:24.322091+00:00"
    },
    {
      "id": "e0d86225-7bc6-4643-b4f6-d324487097c6",
      "name": "黑教堂",
      "lat": 64.8214,
      "lng": -23.3857,
      "address": "冰島",
      "note": "",
      "category_id": "flowers",
      "created_at": "2026-04-14T03:35:24.322091+00:00",
      "last_used_at": "2026-04-14T03:35:24.322091+00:00"
    },
    {
      "id": "b5f4a081-19bf-47ec-b8a0-980e02004da3",
      "name": "無頭人雕像",
      "lat": 37.9055,
      "lng": 22.8788,
      "address": "希臘",
      "note": "",
      "category_id": "flowers",
      "created_at": "2026-04-14T03:35:24.322091+00:00",
      "last_used_at": "2026-04-14T03:35:24.322091+00:00"
    },
    {
      "id": "c4e0479c-fa2a-4127-b842-7e587dd200a8",
      "name": "宇賀神社",
      "lat": 34.9764,
      "lng": 135.7633,
      "address": "日本",
      "note": "",
      "category_id": "flowers",
      "created_at": "2026-04-14T03:35:24.322091+00:00",
      "last_used_at": "2026-04-14T03:35:24.322091+00:00"
    },
    {
      "id": "92792d24-71ed-46c3-a7e9-3719bfb252cd",
      "name": "淡路島公園 蠟筆小新",
      "lat": 34.5743,
      "lng": 135.0049,
      "address": "日本",
      "note": "",
      "category_id": "flowers",
      "created_at": "2026-04-14T03:35:24.322091+00:00",
      "last_used_at": "2026-04-14T03:35:24.322091+00:00"
    },
    {
      "id": "dad8e0d8-8d15-4100-a177-8380fc1c255e",
      "name": "東京迪士尼 史迪仔",
      "lat": 35.629924,
      "lng": 139.881278,
      "address": "日本",
      "note": "",
      "category_id": "flowers",
      "created_at": "2026-04-14T03:35:24.322091+00:00",
      "last_used_at": "2026-04-14T03:35:24.322091+00:00"
    },
    {
      "id": "934c6908-9cd3-426b-970a-a63c2466ac57",
      "name": "萊希瀑布",
      "lat": 47.561806,
      "lng": 10.694803,
      "address": "德國",
      "note": "",
      "category_id": "flowers",
      "created_at": "2026-04-14T03:35:24.322091+00:00",
      "last_used_at": "2026-04-14T03:35:24.322091+00:00"
    },
    {
      "id": "9470556a-73bb-47f3-9b50-1baacc8127bc",
      "name": "(土耳其)卡帕多奇亞熱氣球",
      "lat": 38.656099,
      "lng": 34.840963,
      "address": "土耳其",
      "note": "明信片花點",
      "category_id": "flowers",
      "created_at": "2026-04-14T03:35:24.322091+00:00",
      "last_used_at": "2026-04-14T03:35:24.322091+00:00"
    },
    {
      "id": "6deab951-5e34-47a5-908b-20e40852dc7d",
      "name": "凡爾賽宮花園",
      "lat": 48.806101,
      "lng": 2.115641,
      "address": "法國",
      "note": "",
      "category_id": "flowers",
      "created_at": "2026-04-14T03:35:24.322091+00:00",
      "last_used_at": "2026-04-14T03:35:24.322091+00:00"
    },
    {
      "id": "459e8214-3245-4aee-83bd-669901838e62",
      "name": "阿姆斯特丹水壩廣場",
      "lat": 52.3731,
      "lng": 4.892351,
      "address": "荷蘭",
      "note": "",
      "category_id": "flowers",
      "created_at": "2026-04-14T03:35:24.322091+00:00",
      "last_used_at": "2026-04-14T03:35:24.322091+00:00"
    },
    {
      "id": "92f86d25-eabf-42ae-8df8-b044e4503119",
      "name": "四草觀汐平臺（海灘）",
      "lat": 22.990102,
      "lng": 120.147027,
      "address": "台灣",
      "note": "",
      "category_id": "decorations",
      "created_at": "2026-04-14T03:35:24.322091+00:00",
      "last_used_at": "2026-04-14T03:35:24.322091+00:00"
    },
    {
      "id": "dc0f0adb-b684-44aa-8bd2-d71934374649",
      "name": "台南機場（機場系列）",
      "lat": 22.948105,
      "lng": 120.216279,
      "address": "台灣",
      "note": "",
      "category_id": "decorations",
      "created_at": "2026-04-14T03:35:24.322091+00:00",
      "last_used_at": "2026-04-14T03:35:24.322091+00:00"
    },
    {
      "id": "289afcc0-b341-4f83-9f51-2ace5c787449",
      "name": "長榮路大東夜市周邊（森林）",
      "lat": 22.983561,
      "lng": 120.217753,
      "address": "台灣",
      "note": "",
      "category_id": "decorations",
      "created_at": "2026-04-14T03:35:24.322091+00:00",
      "last_used_at": "2026-04-14T03:35:24.322091+00:00"
    },
    {
      "id": "326a6bda-7ffc-40e1-87bd-67a55b04b21c",
      "name": "友愛街南台影城（電影院）",
      "lat": 22.992356,
      "lng": 120.195207,
      "address": "台灣",
      "note": "",
      "category_id": "decorations",
      "created_at": "2026-04-14T03:35:24.322091+00:00",
      "last_used_at": "2026-04-14T03:35:24.322091+00:00"
    },
    {
      "id": "d1082814-5703-4154-848a-ce51e6d64b51",
      "name": "新北三重棒球場（體育場）",
      "lat": 25.059726,
      "lng": 121.480876,
      "address": "台灣",
      "note": "",
      "category_id": "decorations",
      "created_at": "2026-04-14T03:35:24.322091+00:00",
      "last_used_at": "2026-04-14T03:35:24.322091+00:00"
    },
    {
      "id": "525f0f1b-b327-42f4-9480-c859fe2be5b9",
      "name": "東京 明治神宮（御神籤）",
      "lat": 35.6723,
      "lng": 139.6928,
      "address": "日本",
      "note": "",
      "category_id": "decorations",
      "created_at": "2026-04-14T03:35:24.322091+00:00",
      "last_used_at": "2026-04-14T03:35:24.322091+00:00"
    },
    {
      "id": "c3803aca-8917-4b67-a413-4a5c326587b2",
      "name": "東京 淺草寺（御神籤）",
      "lat": 35.714661,
      "lng": 139.796783,
      "address": "日本",
      "note": "",
      "category_id": "decorations",
      "created_at": "2026-04-14T03:35:24.322091+00:00",
      "last_used_at": "2026-04-14T03:35:24.322091+00:00"
    },
    {
      "id": "bb6c32bb-eb97-42ec-964d-faae36b856d0",
      "name": "京都 清水寺（御神籤）",
      "lat": 34.9948,
      "lng": 135.7846,
      "address": "日本",
      "note": "",
      "category_id": "decorations",
      "created_at": "2026-04-14T03:35:24.322091+00:00",
      "last_used_at": "2026-04-14T03:35:24.322091+00:00"
    },
    {
      "id": "da10c774-9d93-4012-bb6a-04d8485e40b1",
      "name": "京都 八坂神社（御神籤）",
      "lat": 35.0022,
      "lng": 135.7738,
      "address": "日本",
      "note": "",
      "category_id": "decorations",
      "created_at": "2026-04-14T03:35:24.322091+00:00",
      "last_used_at": "2026-04-14T03:35:24.322091+00:00"
    },
    {
      "id": "0f64fa11-b1a2-4aa0-8e77-3af943d80f9f",
      "name": "京都 上賀茂神社（御神籤）",
      "lat": 35.05928,
      "lng": 135.752533,
      "address": "日本",
      "note": "",
      "category_id": "decorations",
      "created_at": "2026-04-14T03:35:24.322091+00:00",
      "last_used_at": "2026-04-14T03:35:24.322091+00:00"
    },
    {
      "id": "96225fd5-7ea4-47a2-a907-7d99ac7a3252",
      "name": "京都 下鴨神社（御神籤）",
      "lat": 35.037196,
      "lng": 135.772566,
      "address": "日本",
      "note": "",
      "category_id": "decorations",
      "created_at": "2026-04-14T03:35:24.322091+00:00",
      "last_used_at": "2026-04-14T03:35:24.322091+00:00"
    },
    {
      "id": "fd7dba2c-26e0-47d4-ab12-c1dbd3aa05be",
      "name": "大阪 住吉大社（御神籤）",
      "lat": 34.6128,
      "lng": 135.4929,
      "address": "日本",
      "note": "",
      "category_id": "decorations",
      "created_at": "2026-04-14T03:35:24.322091+00:00",
      "last_used_at": "2026-04-14T03:35:24.322091+00:00"
    },
    {
      "id": "28f1a232-9c49-46ec-96e0-85349130ff17",
      "name": "大阪 天滿宮（御神籤）",
      "lat": 34.6943,
      "lng": 135.5135,
      "address": "日本",
      "note": "",
      "category_id": "decorations",
      "created_at": "2026-04-14T03:35:24.322091+00:00",
      "last_used_at": "2026-04-14T03:35:24.322091+00:00"
    },
    {
      "id": "133db82e-bc02-47d6-a645-4b1336f707d2",
      "name": "京都 愛宕念佛寺（1200石像・冷門）",
      "lat": 35.031359,
      "lng": 135.661119,
      "address": "日本",
      "note": "嵐山山腳，1200尊表情幽默石像，超安靜",
      "category_id": "decorations",
      "created_at": "2026-04-14T15:00:00.000000+00:00",
      "last_used_at": "2026-04-14T15:00:00.000000+00:00"
    },
    {
      "id": "01e8c100-20cf-4b7d-beae-51b6b426b3e0",
      "name": "和歌山 熊野那智大社（世界遺產・冷門）",
      "lat": 33.66861,
      "lng": 135.89056,
      "address": "日本",
      "note": "世界遺產，俯瞰133m瀑布，和歌山山區",
      "category_id": "decorations",
      "created_at": "2026-04-14T15:00:00.000000+00:00",
      "last_used_at": "2026-04-14T15:00:00.000000+00:00"
    },
    {
      "id": "16058f6e-441d-4c78-9ebf-414cb905ea31",
      "name": "山形 立石寺（懸崖寺廟・冷門）",
      "lat": 38.313253963037326,
      "lng": 140.43464208447864,
      "address": "日本",
      "note": "建在懸崖上，東北地區，遊客極少",
      "category_id": "decorations",
      "created_at": "2026-04-14T15:00:00.000000+00:00",
      "last_used_at": "2026-04-14T15:00:00.000000+00:00"
    },
    {
      "id": "14d2f264-5df6-4a65-886f-cb3fd0a308fc",
      "name": "山形 熊野大社（冷門）",
      "lat": 38.07905197938322,
      "lng": 140.13713592911853,
      "address": "日本",
      "note": "山形縣",
      "category_id": "decorations",
      "created_at": "2026-04-14T15:00:00.000000+00:00",
      "last_used_at": "2026-04-14T15:00:00.000000+00:00"
    },
    {
      "id": "c3e27e8c-5b52-4e5d-a36a-be81f1a1cc31",
      "name": "日本宮城",
      "lat": 38.13,
      "lng": 140.443,
      "address": "",
      "note": "",
      "category_id": "mushrooms",
      "created_at": "2026-04-17T00:28:47.959825+00:00",
      "last_used_at": "2026-04-17T00:28:47.959825+00:00"
    },
    {
      "id": "eb8e4de7-fdd0-4d7b-9508-4ec946550a2e",
      "name": "(日本)鹿兒島海之展望所",
      "lat": 31.582421,
      "lng": 130.564466,
      "address": "",
      "note": "明信片菇點",
      "category_id": "postcards",
      "created_at": "2026-04-17T17:41:34.443410+00:00",
      "last_used_at": "2026-04-17T17:41:34.443410+00:00"
    },
    {
      "id": "ebeeea83-74cb-4131-8aff-413cc6bd30f3",
      "name": "(日本)富士山河口湖 Oishi Park",
      "lat": 35.523661,
      "lng": 138.746998,
      "address": "",
      "note": "隱藏明信片，要用探測器有機會取得",
      "category_id": "postcards",
      "created_at": "2026-04-17T17:58:33.510363+00:00",
      "last_used_at": "2026-04-17T17:58:33.510363+00:00"
    },
    {
      "id": "79e8e87f-5418-4e4e-a4c6-468aa49b3db7",
      "name": "片瀨漁港提防白燈台",
      "lat": 35.523661,
      "lng": 138.746998,
      "address": "",
      "note": "",
      "category_id": "postcards",
      "created_at": "2026-04-17T18:07:54.591101+00:00",
      "last_used_at": "2026-04-17T18:07:54.591101+00:00"
    },
    {
      "id": "5c3f4a7c-f27f-4055-b7b4-2d063cf3d4db",
      "name": "(日本)幸福的階梯",
      "lat": 34.51304997,
      "lng": 134.86966945,
      "address": "",
      "note": "神戶兵庫縣花點",
      "category_id": "postcards",
      "created_at": "2026-04-18T00:00:00.000000+00:00",
      "last_used_at": "2026-04-18T00:00:00.000000+00:00"
    },
    {
      "id": "8b9d4e5b-e87f-4b74-86f6-fb6ea6a2af0d",
      "name": "(美國夏威夷)昂星團望遠鏡",
      "lat": 19.8254395,
      "lng": -155.4762455,
      "address": "",
      "note": "明信片花點",
      "category_id": "postcards",
      "created_at": "2026-04-18T00:00:00.000000+00:00",
      "last_used_at": "2026-04-18T00:00:00.000000+00:00"
    },
    {
      "id": "03f66398-b6db-430b-88c8-a51ea5a43bfd",
      "name": "(義大利)Sant'Eufemia 小教堂",
      "lat": 46.118806,
      "lng": 9.278723,
      "address": "",
      "note": "義大利北部 Musso，明信片菇點",
      "category_id": "postcards",
      "created_at": "2026-04-18T00:00:00.000000+00:00",
      "last_used_at": "2026-04-18T00:00:00.000000+00:00"
    },
    {
      "id": "8acf9743-5ab9-42da-9928-af7947af55cc",
      "name": "(德國)聖科洛曼教堂",
      "lat": 47.57872,
      "lng": 10.74939,
      "address": "",
      "note": "明信片花點",
      "category_id": "postcards",
      "created_at": "2026-04-18T00:00:00.000000+00:00",
      "last_used_at": "2026-04-18T00:00:00.000000+00:00"
    },
    {
      "id": "fb610309-0bca-4234-8252-ebdb3c0ba32c",
      "name": "(德國)新天鵝堡",
      "lat": 47.562449,
      "lng": 10.7384,
      "address": "",
      "note": "明信片花點",
      "category_id": "postcards",
      "created_at": "2026-04-18T00:00:00.000000+00:00",
      "last_used_at": "2026-04-18T00:00:00.000000+00:00"
    },
    {
      "id": "c2575061-c1c5-4ef1-a563-75c81f98f97f",
      "name": "(日本)藥萊花園",
      "lat": 38.578319,
      "lng": 140.722579,
      "address": "",
      "note": "明信片花點",
      "category_id": "postcards",
      "created_at": "2026-04-18T00:00:00.000000+00:00",
      "last_used_at": "2026-04-18T00:00:00.000000+00:00"
    },
    {
      "id": "84ea1f9d-0969-467f-b4d9-620b50c4f98a",
      "name": "(日本)大宮花之丘",
      "lat": 35.943625,
      "lng": 139.590097,
      "address": "",
      "note": "明信片花點",
      "category_id": "postcards",
      "created_at": "2026-04-18T00:00:00.000000+00:00",
      "last_used_at": "2026-04-18T00:00:00.000000+00:00"
    },
    {
      "id": "1551fccc-4d3e-47fc-bc45-5ce3024355b0",
      "name": "(日本)嚴島神社大鳥居",
      "lat": 34.2959,
      "lng": 132.3197,
      "address": "日本",
      "note": "明信片菇點",
      "category_id": "postcards",
      "created_at": "2026-04-14T03:35:24.322091+00:00",
      "last_used_at": "2026-04-14T03:35:24.322091+00:00"
    },
    {
      "id": "f6cb6eec-f455-4370-827f-29108eab0d2b",
      "name": "(日本)秋田駒岳山頂",
      "lat": 39.757273,
      "lng": 140.79465,
      "address": "",
      "note": "明信片菇點",
      "category_id": "postcards",
      "created_at": "2026-04-18T00:00:00.000000+00:00",
      "last_used_at": "2026-04-18T00:00:00.000000+00:00"
    },
    {
      "id": "6381997f-2e2b-479e-96d3-1f7f7f172132",
      "name": "(泰國)清萊白龍寺",
      "lat": 19.824184,
      "lng": 99.763842,
      "address": "",
      "note": "明信片花點",
      "category_id": "postcards",
      "created_at": "2026-04-18T00:00:00.000000+00:00",
      "last_used_at": "2026-04-18T00:00:00.000000+00:00"
    },
    {
      "id": "8bff2cff-a8e3-4134-b925-a1ec534aa9e7",
      "name": "(德國)萊西河瀑布",
      "lat": 47.562001,
      "lng": 10.694757,
      "address": "",
      "note": "明信片花點",
      "category_id": "postcards",
      "created_at": "2026-04-18T00:00:00.000000+00:00",
      "last_used_at": "2026-04-18T00:00:00.000000+00:00"
    },
    {
      "id": "84699ce1-8d6f-422b-8e49-8d3ccef351da",
      "name": "(日本)名古屋羊神社",
      "lat": 35.207756,
      "lng": 136.926931,
      "address": "",
      "note": "運勢純點",
      "category_id": "decorations",
      "created_at": "2026-04-19T00:00:00.000000+00:00",
      "last_used_at": "2026-04-19T00:00:00.000000+00:00"
    },
    {
      "id": "132a5cfe-eb47-485d-8c41-d8060630ce65",
      "name": "(美國)羚羊谷",
      "lat": 36.86224808678582,
      "lng": -111.3743924897564,
      "address": "",
      "note": "明信片菇點",
      "category_id": "postcards",
      "created_at": "2026-04-22T00:00:00.000000+00:00",
      "last_used_at": "2026-04-22T00:00:00.000000+00:00"
    }
  ]
}
